{
  "type": "FeatureCollection",
  "features": [
    {
      "type": "Feature",
      "properties": {
        "名称": "Cultural Landscape and Archaeological Remains of the Bamiyan Valley",
        "国": "Afghanistan",
        "種別": "文化遺産",
        "登録年": 2003
      },
      "geometry": {
        "type": "Point",
        "coordinates": [
          67.82525,
          34.84694
        ]
      }
    },
    {
      "type": "Feature",
      "properties": {
        "名称": "Minaret and Archaeological Remains of Jam",
        "国": "Afghanistan",
        "種別": "文化遺産",
        "登録年": 2002
      },
      "geometry": {
        "type": "Point",
        "coordinates": [
          64.5158888889,
          34.3964166667
        ]
      }
    },
    {
      "type": "Feature",
      "properties": {
        "名称": "Historic Centres of Berat and Gjirokastra",
        "国": "Albania",
        "種別": "文化遺産",
        "登録年": 2005
      },
      "geometry": {
        "type": "Point",
        "coordinates": [
          20.1408333333,
          40.0741666667
        ]
      }
    },
    {
      "type": "Feature",
      "properties": {
        "名称": "Butrint",
        "国": "Albania",
        "種別": "文化遺産",
        "登録年": 1992
      },
      "geometry": {
        "type": "Point",
        "coordinates": [
          20.02095,
          39.745732
        ]
      }
    },
    {
      "type": "Feature",
      "properties": {
        "名称": "Al Qal'a of Beni Hammad",
        "国": "Algeria",
        "種別": "文化遺産",
        "登録年": 1980
      },
      "geometry": {
        "type": "Point",
        "coordinates": [
          4.78684,
          35.81844
        ]
      }
    },
    {
      "type": "Feature",
      "properties": {
        "名称": "Tassili n'Ajjer",
        "国": "Algeria",
        "種別": "複合遺産",
        "登録年": 1982
      },
      "geometry": {
        "type": "Point",
        "coordinates": [
          9.0,
          25.5
        ]
      }
    },
    {
      "type": "Feature",
      "properties": {
        "名称": "M'Zab Valley",
        "国": "Algeria",
        "種別": "文化遺産",
        "登録年": 1982
      },
      "geometry": {
        "type": "Point",
        "coordinates": [
          3.68333,
          32.48333
        ]
      }
    },
    {
      "type": "Feature",
      "properties": {
        "名称": "Djémila",
        "国": "Algeria",
        "種別": "文化遺産",
        "登録年": 1982
      },
      "geometry": {
        "type": "Point",
        "coordinates": [
          5.73667,
          36.32056
        ]
      }
    },
    {
      "type": "Feature",
      "properties": {
        "名称": "Tipasa",
        "国": "Algeria",
        "種別": "文化遺産",
        "登録年": 1982
      },
      "geometry": {
        "type": "Point",
        "coordinates": [
          2.383333333,
          36.55
        ]
      }
    },
    {
      "type": "Feature",
      "properties": {
        "名称": "Timgad",
        "国": "Algeria",
        "種別": "文化遺産",
        "登録年": 1982
      },
      "geometry": {
        "type": "Point",
        "coordinates": [
          6.4688611111,
          35.4841666667
        ]
      }
    },
    {
      "type": "Feature",
      "properties": {
        "名称": "Kasbah of Algiers",
        "国": "Algeria",
        "種別": "文化遺産",
        "登録年": 1992
      },
      "geometry": {
        "type": "Point",
        "coordinates": [
          3.06028,
          36.78333
        ]
      }
    },
    {
      "type": "Feature",
      "properties": {
        "名称": "Madriu-Perafita-Claror Valley",
        "国": "Andorra",
        "種別": "文化遺産",
        "登録年": 2004
      },
      "geometry": {
        "type": "Point",
        "coordinates": [
          1.595555556,
          42.49472222
        ]
      }
    },
    {
      "type": "Feature",
      "properties": {
        "名称": "Mbanza Kongo, Vestiges of the Capital of the former Kingdom of Kongo",
        "国": "Angola",
        "種別": "文化遺産",
        "登録年": 2017
      },
      "geometry": {
        "type": "Point",
        "coordinates": [
          14.2497222222,
          -6.2688888889
        ]
      }
    },
    {
      "type": "Feature",
      "properties": {
        "名称": "Antigua Naval Dockyard and Related Archaeological Sites",
        "国": "Antigua and Barbuda",
        "種別": "文化遺産",
        "登録年": 2016
      },
      "geometry": {
        "type": "Point",
        "coordinates": [
          -61.7616666667,
          17.0069444444
        ]
      }
    },
    {
      "type": "Feature",
      "properties": {
        "名称": "Los Glaciares National Park",
        "国": "Argentina",
        "種別": "自然遺産",
        "登録年": 1981
      },
      "geometry": {
        "type": "Point",
        "coordinates": [
          -73.24944,
          -50.0
        ]
      }
    },
    {
      "type": "Feature",
      "properties": {
        "名称": "Iguazu National Park",
        "国": "Argentina",
        "種別": "自然遺産",
        "登録年": 1984
      },
      "geometry": {
        "type": "Point",
        "coordinates": [
          -54.286073,
          -25.577357
        ]
      }
    },
    {
      "type": "Feature",
      "properties": {
        "名称": "Cueva de las Manos, Río Pinturas",
        "国": "Argentina",
        "種別": "文化遺産",
        "登録年": 1999
      },
      "geometry": {
        "type": "Point",
        "coordinates": [
          -70.66666667,
          -47.15
        ]
      }
    },
    {
      "type": "Feature",
      "properties": {
        "名称": "Península Valdés",
        "国": "Argentina",
        "種別": "自然遺産",
        "登録年": 1999
      },
      "geometry": {
        "type": "Point",
        "coordinates": [
          -64.0,
          -42.5
        ]
      }
    },
    {
      "type": "Feature",
      "properties": {
        "名称": "Ischigualasto / Talampaya Natural Parks",
        "国": "Argentina",
        "種別": "自然遺産",
        "登録年": 2000
      },
      "geometry": {
        "type": "Point",
        "coordinates": [
          -68.0,
          -30.0
        ]
      }
    },
    {
      "type": "Feature",
      "properties": {
        "名称": "Jesuit Block and Estancias of Córdoba",
        "国": "Argentina",
        "種別": "文化遺産",
        "登録年": 2000
      },
      "geometry": {
        "type": "Point",
        "coordinates": [
          -64.19111,
          -31.42056
        ]
      }
    },
    {
      "type": "Feature",
      "properties": {
        "名称": "Quebrada de Humahuaca",
        "国": "Argentina",
        "種別": "文化遺産",
        "登録年": 2003
      },
      "geometry": {
        "type": "Point",
        "coordinates": [
          -65.34886111,
          -23.19986111
        ]
      }
    },
    {
      "type": "Feature",
      "properties": {
        "名称": "Los Alerces National Park",
        "国": "Argentina",
        "種別": "自然遺産",
        "登録年": 2017
      },
      "geometry": {
        "type": "Point",
        "coordinates": [
          -71.8728,
          -42.8528
        ]
      }
    },
    {
      "type": "Feature",
      "properties": {
        "名称": "ESMA Museum and Site of Memory – Former Clandestine Centre of Detention, Torture and Extermination",
        "国": "Argentina",
        "種別": "文化遺産",
        "登録年": 2023
      },
      "geometry": {
        "type": "Point",
        "coordinates": [
          -58.4653333333,
          -34.5366416667
        ]
      }
    },
    {
      "type": "Feature",
      "properties": {
        "名称": "Monasteries of Haghpat and Sanahin",
        "国": "Armenia",
        "種別": "文化遺産",
        "登録年": 1996
      },
      "geometry": {
        "type": "Point",
        "coordinates": [
          44.71028,
          41.095
        ]
      }
    },
    {
      "type": "Feature",
      "properties": {
        "名称": "Monastery of Geghard and the Upper Azat Valley",
        "国": "Armenia",
        "種別": "文化遺産",
        "登録年": 2000
      },
      "geometry": {
        "type": "Point",
        "coordinates": [
          44.818525,
          40.140439
        ]
      }
    },
    {
      "type": "Feature",
      "properties": {
        "名称": "Cathedral and Churches of Echmiatsin and the Archaeological Site of Zvartnots",
        "国": "Armenia",
        "種別": "文化遺産",
        "登録年": 2000
      },
      "geometry": {
        "type": "Point",
        "coordinates": [
          44.29514,
          40.15931
        ]
      }
    },
    {
      "type": "Feature",
      "properties": {
        "名称": "Kakadu National Park",
        "国": "Australia",
        "種別": "複合遺産",
        "登録年": 1981
      },
      "geometry": {
        "type": "Point",
        "coordinates": [
          132.8333333,
          -12.83333333
        ]
      }
    },
    {
      "type": "Feature",
      "properties": {
        "名称": "Great Barrier Reef",
        "国": "Australia",
        "種別": "自然遺産",
        "登録年": 1981
      },
      "geometry": {
        "type": "Point",
        "coordinates": [
          147.7,
          -18.28611111
        ]
      }
    },
    {
      "type": "Feature",
      "properties": {
        "名称": "Sydney Opera House",
        "国": "Australia",
        "種別": "文化遺産",
        "登録年": 2007
      },
      "geometry": {
        "type": "Point",
        "coordinates": [
          151.2152777777,
          -33.8566666667
        ]
      }
    },
    {
      "type": "Feature",
      "properties": {
        "名称": "Willandra Lakes Region",
        "国": "Australia",
        "種別": "複合遺産",
        "登録年": 1981
      },
      "geometry": {
        "type": "Point",
        "coordinates": [
          143.0,
          -34.0
        ]
      }
    },
    {
      "type": "Feature",
      "properties": {
        "名称": "Tasmanian Wilderness",
        "国": "Australia",
        "種別": "複合遺産",
        "登録年": 1982
      },
      "geometry": {
        "type": "Point",
        "coordinates": [
          146.2305555556,
          -43.1184722222
        ]
      }
    },
    {
      "type": "Feature",
      "properties": {
        "名称": "Lord Howe Island Group",
        "国": "Australia",
        "種別": "自然遺産",
        "登録年": 1982
      },
      "geometry": {
        "type": "Point",
        "coordinates": [
          159.0883333,
          -31.56555556
        ]
      }
    },
    {
      "type": "Feature",
      "properties": {
        "名称": "Gondwana Rainforests of Australia",
        "国": "Australia",
        "種別": "自然遺産",
        "登録年": 1986
      },
      "geometry": {
        "type": "Point",
        "coordinates": [
          150.05,
          -28.25
        ]
      }
    },
    {
      "type": "Feature",
      "properties": {
        "名称": "Ulu<U>r</U>u-Kata Tju<U>t</U>a National Park",
        "国": "Australia",
        "種別": "複合遺産",
        "登録年": 1987
      },
      "geometry": {
        "type": "Point",
        "coordinates": [
          131.0,
          -25.33333333
        ]
      }
    },
    {
      "type": "Feature",
      "properties": {
        "名称": "Wet Tropics of Queensland",
        "国": "Australia",
        "種別": "自然遺産",
        "登録年": 1988
      },
      "geometry": {
        "type": "Point",
        "coordinates": [
          144.9666667,
          -15.65
        ]
      }
    },
    {
      "type": "Feature",
      "properties": {
        "名称": "Heard and McDonald Islands",
        "国": "Australia",
        "種別": "自然遺産",
        "登録年": 1997
      },
      "geometry": {
        "type": "Point",
        "coordinates": [
          73.5,
          -53.1
        ]
      }
    },
    {
      "type": "Feature",
      "properties": {
        "名称": "Shark Bay, Western Australia",
        "国": "Australia",
        "種別": "自然遺産",
        "登録年": 1991
      },
      "geometry": {
        "type": "Point",
        "coordinates": [
          113.4361111,
          -25.48611111
        ]
      }
    },
    {
      "type": "Feature",
      "properties": {
        "名称": "Macquarie Island",
        "国": "Australia",
        "種別": "自然遺産",
        "登録年": 1997
      },
      "geometry": {
        "type": "Point",
        "coordinates": [
          158.8955556,
          -54.59472222
        ]
      }
    },
    {
      "type": "Feature",
      "properties": {
        "名称": "K’gari (Fraser Island)",
        "国": "Australia",
        "種別": "自然遺産",
        "登録年": 1992
      },
      "geometry": {
        "type": "Point",
        "coordinates": [
          153.1333333,
          -25.21666667
        ]
      }
    },
    {
      "type": "Feature",
      "properties": {
        "名称": "Australian Fossil Mammal Sites (Riversleigh / Naracoorte)",
        "国": "Australia",
        "種別": "自然遺産",
        "登録年": 1994
      },
      "geometry": {
        "type": "Point",
        "coordinates": [
          138.7166667,
          -19.08333333
        ]
      }
    },
    {
      "type": "Feature",
      "properties": {
        "名称": "Greater Blue Mountains Area",
        "国": "Australia",
        "種別": "自然遺産",
        "登録年": 2000
      },
      "geometry": {
        "type": "Point",
        "coordinates": [
          150.0,
          -33.7
        ]
      }
    },
    {
      "type": "Feature",
      "properties": {
        "名称": "Purnululu National Park",
        "国": "Australia",
        "種別": "自然遺産",
        "登録年": 2003
      },
      "geometry": {
        "type": "Point",
        "coordinates": [
          128.5,
          -17.5
        ]
      }
    },
    {
      "type": "Feature",
      "properties": {
        "名称": "Royal Exhibition Building and Carlton Gardens",
        "国": "Australia",
        "種別": "文化遺産",
        "登録年": 2004
      },
      "geometry": {
        "type": "Point",
        "coordinates": [
          144.9702778,
          -37.80611111
        ]
      }
    },
    {
      "type": "Feature",
      "properties": {
        "名称": "Australian Convict Sites",
        "国": "Australia",
        "種別": "文化遺産",
        "登録年": 2010
      },
      "geometry": {
        "type": "Point",
        "coordinates": [
          150.9944444444,
          -33.3783333333
        ]
      }
    },
    {
      "type": "Feature",
      "properties": {
        "名称": "Ningaloo Coast",
        "国": "Australia",
        "種別": "自然遺産",
        "登録年": 2011
      },
      "geometry": {
        "type": "Point",
        "coordinates": [
          113.8102777778,
          -22.5625
        ]
      }
    },
    {
      "type": "Feature",
      "properties": {
        "名称": "Budj Bim Cultural Landscape",
        "国": "Australia",
        "種別": "文化遺産",
        "登録年": 2019
      },
      "geometry": {
        "type": "Point",
        "coordinates": [
          141.8852777778,
          -38.0811111111
        ]
      }
    },
    {
      "type": "Feature",
      "properties": {
        "名称": "Historic Centre of the City of Salzburg",
        "国": "Austria",
        "種別": "文化遺産",
        "登録年": 1996
      },
      "geometry": {
        "type": "Point",
        "coordinates": [
          13.04333333,
          47.80055556
        ]
      }
    },
    {
      "type": "Feature",
      "properties": {
        "名称": "Semmering Railway",
        "国": "Austria",
        "種別": "文化遺産",
        "登録年": 1998
      },
      "geometry": {
        "type": "Point",
        "coordinates": [
          15.82797222,
          47.64877778
        ]
      }
    },
    {
      "type": "Feature",
      "properties": {
        "名称": "Palace and Gardens of Schönbrunn",
        "国": "Austria",
        "種別": "文化遺産",
        "登録年": 1996
      },
      "geometry": {
        "type": "Point",
        "coordinates": [
          16.31333333,
          48.18666667
        ]
      }
    },
    {
      "type": "Feature",
      "properties": {
        "名称": "Hallstatt-Dachstein / Salzkammergut Cultural Landscape",
        "国": "Austria",
        "種別": "文化遺産",
        "登録年": 1997
      },
      "geometry": {
        "type": "Point",
        "coordinates": [
          13.64638889,
          47.55944444
        ]
      }
    },
    {
      "type": "Feature",
      "properties": {
        "名称": "City of Graz – Historic Centre and Schloss Eggenberg",
        "国": "Austria",
        "種別": "文化遺産",
        "登録年": 1999
      },
      "geometry": {
        "type": "Point",
        "coordinates": [
          15.4386111111,
          47.0730555556
        ]
      }
    },
    {
      "type": "Feature",
      "properties": {
        "名称": "Wachau Cultural Landscape",
        "国": "Austria",
        "種別": "文化遺産",
        "登録年": 2000
      },
      "geometry": {
        "type": "Point",
        "coordinates": [
          15.43416667,
          48.36444444
        ]
      }
    },
    {
      "type": "Feature",
      "properties": {
        "名称": "Historic Centre of Vienna",
        "国": "Austria",
        "種別": "文化遺産",
        "登録年": 2001
      },
      "geometry": {
        "type": "Point",
        "coordinates": [
          16.3699,
          48.2094
        ]
      }
    },
    {
      "type": "Feature",
      "properties": {
        "名称": "Walled City of Baku with the Shirvanshah's Palace and Maiden Tower",
        "国": "Azerbaijan",
        "種別": "文化遺産",
        "登録年": 2000
      },
      "geometry": {
        "type": "Point",
        "coordinates": [
          49.83333333,
          40.36666667
        ]
      }
    },
    {
      "type": "Feature",
      "properties": {
        "名称": "Gobustan Rock Art Cultural Landscape",
        "国": "Azerbaijan",
        "種別": "文化遺産",
        "登録年": 2007
      },
      "geometry": {
        "type": "Point",
        "coordinates": [
          49.375,
          40.125
        ]
      }
    },
    {
      "type": "Feature",
      "properties": {
        "名称": "Historic Centre of Sheki with the Khan’s Palace",
        "国": "Azerbaijan",
        "種別": "文化遺産",
        "登録年": 2019
      },
      "geometry": {
        "type": "Point",
        "coordinates": [
          47.1875,
          41.2033333333
        ]
      }
    },
    {
      "type": "Feature",
      "properties": {
        "名称": "Cultural Landscape of Khinalig People and “Köç Yolu” Transhumance Route",
        "国": "Azerbaijan",
        "種別": "文化遺産",
        "登録年": 2023
      },
      "geometry": {
        "type": "Point",
        "coordinates": [
          48.8854,
          40.7059
        ]
      }
    },
    {
      "type": "Feature",
      "properties": {
        "名称": "Qal’at al-Bahrain – Ancient Harbour and Capital of Dilmun",
        "国": "Bahrain",
        "種別": "文化遺産",
        "登録年": 2005
      },
      "geometry": {
        "type": "Point",
        "coordinates": [
          50.5272222222,
          26.23306
        ]
      }
    },
    {
      "type": "Feature",
      "properties": {
        "名称": "Pearling, Testimony of an Island Economy",
        "国": "Bahrain",
        "種別": "文化遺産",
        "登録年": 2012
      },
      "geometry": {
        "type": "Point",
        "coordinates": [
          50.61351,
          26.24128
        ]
      }
    },
    {
      "type": "Feature",
      "properties": {
        "名称": "Dilmun Burial Mounds",
        "国": "Bahrain",
        "種別": "文化遺産",
        "登録年": 2019
      },
      "geometry": {
        "type": "Point",
        "coordinates": [
          50.5127777778,
          26.1497222222
        ]
      }
    },
    {
      "type": "Feature",
      "properties": {
        "名称": "Historic Mosque City of Bagerhat",
        "国": "Bangladesh",
        "種別": "文化遺産",
        "登録年": 1985
      },
      "geometry": {
        "type": "Point",
        "coordinates": [
          89.8,
          22.66667
        ]
      }
    },
    {
      "type": "Feature",
      "properties": {
        "名称": "Ruins of the Buddhist Vihara at Paharpur",
        "国": "Bangladesh",
        "種別": "文化遺産",
        "登録年": 1985
      },
      "geometry": {
        "type": "Point",
        "coordinates": [
          88.98333333,
          25.03333333
        ]
      }
    },
    {
      "type": "Feature",
      "properties": {
        "名称": "The Sundarbans",
        "国": "Bangladesh",
        "種別": "自然遺産",
        "登録年": 1997
      },
      "geometry": {
        "type": "Point",
        "coordinates": [
          89.18333,
          21.95
        ]
      }
    },
    {
      "type": "Feature",
      "properties": {
        "名称": "Historic Bridgetown and its Garrison",
        "国": "Barbados",
        "種別": "文化遺産",
        "登録年": 2011
      },
      "geometry": {
        "type": "Point",
        "coordinates": [
          -59.6138888889,
          13.0966666667
        ]
      }
    },
    {
      "type": "Feature",
      "properties": {
        "名称": "Mir Castle Complex",
        "国": "Belarus",
        "種別": "文化遺産",
        "登録年": 2000
      },
      "geometry": {
        "type": "Point",
        "coordinates": [
          26.47272222,
          53.45108333
        ]
      }
    },
    {
      "type": "Feature",
      "properties": {
        "名称": "Architectural, Residential and Cultural Complex of the Radziwill Family at Nesvizh",
        "国": "Belarus",
        "種別": "文化遺産",
        "登録年": 2005
      },
      "geometry": {
        "type": "Point",
        "coordinates": [
          26.69139,
          53.22278
        ]
      }
    },
    {
      "type": "Feature",
      "properties": {
        "名称": "Flemish Béguinages",
        "国": "Belgium",
        "種別": "文化遺産",
        "登録年": 1998
      },
      "geometry": {
        "type": "Point",
        "coordinates": [
          4.47375,
          51.03097222
        ]
      }
    },
    {
      "type": "Feature",
      "properties": {
        "名称": "The Four Lifts on the Canal du Centre and their Environs, La Louvière and Le Roeulx (Hainaut)",
        "国": "Belgium",
        "種別": "文化遺産",
        "登録年": 1998
      },
      "geometry": {
        "type": "Point",
        "coordinates": [
          4.13722,
          50.48111
        ]
      }
    },
    {
      "type": "Feature",
      "properties": {
        "名称": "La Grand-Place, Brussels",
        "国": "Belgium",
        "種別": "文化遺産",
        "登録年": 1998
      },
      "geometry": {
        "type": "Point",
        "coordinates": [
          4.35242,
          50.84668
        ]
      }
    },
    {
      "type": "Feature",
      "properties": {
        "名称": "Historic Centre of Brugge",
        "国": "Belgium",
        "種別": "文化遺産",
        "登録年": 2000
      },
      "geometry": {
        "type": "Point",
        "coordinates": [
          3.22527,
          51.20891
        ]
      }
    },
    {
      "type": "Feature",
      "properties": {
        "名称": "Major Town Houses of the Architect Victor Horta (Brussels)",
        "国": "Belgium",
        "種別": "文化遺産",
        "登録年": 2000
      },
      "geometry": {
        "type": "Point",
        "coordinates": [
          4.36223,
          50.82806
        ]
      }
    },
    {
      "type": "Feature",
      "properties": {
        "名称": "Neolithic Flint Mines at Spiennes (Mons)",
        "国": "Belgium",
        "種別": "文化遺産",
        "登録年": 2000
      },
      "geometry": {
        "type": "Point",
        "coordinates": [
          3.9822689106,
          50.4201134823
        ]
      }
    },
    {
      "type": "Feature",
      "properties": {
        "名称": "Notre-Dame Cathedral in Tournai",
        "国": "Belgium",
        "種別": "文化遺産",
        "登録年": 2000
      },
      "geometry": {
        "type": "Point",
        "coordinates": [
          3.38926,
          50.60603
        ]
      }
    },
    {
      "type": "Feature",
      "properties": {
        "名称": "Plantin-Moretus House-Workshops-Museum Complex",
        "国": "Belgium",
        "種別": "文化遺産",
        "登録年": 2005
      },
      "geometry": {
        "type": "Point",
        "coordinates": [
          4.39778,
          51.21833
        ]
      }
    },
    {
      "type": "Feature",
      "properties": {
        "名称": "Stoclet House",
        "国": "Belgium",
        "種別": "文化遺産",
        "登録年": 2009
      },
      "geometry": {
        "type": "Point",
        "coordinates": [
          4.4161111111,
          50.835
        ]
      }
    },
    {
      "type": "Feature",
      "properties": {
        "名称": "Major Mining Sites of Wallonia",
        "国": "Belgium",
        "種別": "文化遺産",
        "登録年": 2012
      },
      "geometry": {
        "type": "Point",
        "coordinates": [
          3.8383333333,
          50.4352777778
        ]
      }
    },
    {
      "type": "Feature",
      "properties": {
        "名称": "Belize Barrier Reef Reserve System",
        "国": "Belize",
        "種別": "自然遺産",
        "登録年": 1996
      },
      "geometry": {
        "type": "Point",
        "coordinates": [
          -87.846213,
          17.190549
        ]
      }
    },
    {
      "type": "Feature",
      "properties": {
        "名称": "Royal Palaces of Abomey",
        "国": "Benin",
        "種別": "文化遺産",
        "登録年": 1985
      },
      "geometry": {
        "type": "Point",
        "coordinates": [
          1.983333333,
          7.183333333
        ]
      }
    },
    {
      "type": "Feature",
      "properties": {
        "名称": "City of Potosí",
        "国": "Bolivia (Plurinational State of)",
        "種別": "文化遺産",
        "登録年": 1987
      },
      "geometry": {
        "type": "Point",
        "coordinates": [
          -65.749813,
          -19.599112
        ]
      }
    },
    {
      "type": "Feature",
      "properties": {
        "名称": "Jesuit Missions of the Chiquitos",
        "国": "Bolivia (Plurinational State of)",
        "種別": "文化遺産",
        "登録年": 1990
      },
      "geometry": {
        "type": "Point",
        "coordinates": [
          -60.5,
          -16.0
        ]
      }
    },
    {
      "type": "Feature",
      "properties": {
        "名称": "Historic City of Sucre",
        "国": "Bolivia (Plurinational State of)",
        "種別": "文化遺産",
        "登録年": 1991
      },
      "geometry": {
        "type": "Point",
        "coordinates": [
          -65.259592,
          -19.04799
        ]
      }
    },
    {
      "type": "Feature",
      "properties": {
        "名称": "Tiwanaku: Spiritual and Political Centre of the Tiwanaku Culture",
        "国": "Bolivia (Plurinational State of)",
        "種別": "文化遺産",
        "登録年": 2000
      },
      "geometry": {
        "type": "Point",
        "coordinates": [
          -68.673278,
          -16.555003
        ]
      }
    },
    {
      "type": "Feature",
      "properties": {
        "名称": "Fuerte de Samaipata",
        "国": "Bolivia (Plurinational State of)",
        "種別": "文化遺産",
        "登録年": 1998
      },
      "geometry": {
        "type": "Point",
        "coordinates": [
          -63.820485,
          -18.178323
        ]
      }
    },
    {
      "type": "Feature",
      "properties": {
        "名称": "Noel Kempff Mercado National Park",
        "国": "Bolivia (Plurinational State of)",
        "種別": "自然遺産",
        "登録年": 2000
      },
      "geometry": {
        "type": "Point",
        "coordinates": [
          -60.86667,
          -14.26667
        ]
      }
    },
    {
      "type": "Feature",
      "properties": {
        "名称": "Old Bridge Area of the Old City of Mostar",
        "国": "Bosnia and Herzegovina",
        "種別": "文化遺産",
        "登録年": 2005
      },
      "geometry": {
        "type": "Point",
        "coordinates": [
          17.815,
          43.3373055556
        ]
      }
    },
    {
      "type": "Feature",
      "properties": {
        "名称": "Mehmed Paša Sokolović Bridge in Višegrad",
        "国": "Bosnia and Herzegovina",
        "種別": "文化遺産",
        "登録年": 2007
      },
      "geometry": {
        "type": "Point",
        "coordinates": [
          19.288025,
          43.7814444444
        ]
      }
    },
    {
      "type": "Feature",
      "properties": {
        "名称": "Vjetrenica Cave, Ravno",
        "国": "Bosnia and Herzegovina",
        "種別": "自然遺産",
        "登録年": 2024
      },
      "geometry": {
        "type": "Point",
        "coordinates": [
          17.9836111111,
          42.8361111111
        ]
      }
    },
    {
      "type": "Feature",
      "properties": {
        "名称": "Tsodilo",
        "国": "Botswana",
        "種別": "文化遺産",
        "登録年": 2001
      },
      "geometry": {
        "type": "Point",
        "coordinates": [
          21.73333333,
          -18.75
        ]
      }
    },
    {
      "type": "Feature",
      "properties": {
        "名称": "Okavango Delta",
        "国": "Botswana",
        "種別": "自然遺産",
        "登録年": 2014
      },
      "geometry": {
        "type": "Point",
        "coordinates": [
          22.9,
          -19.2833333333
        ]
      }
    },
    {
      "type": "Feature",
      "properties": {
        "名称": "Historic Town of Ouro Preto",
        "国": "Brazil",
        "種別": "文化遺産",
        "登録年": 1980
      },
      "geometry": {
        "type": "Point",
        "coordinates": [
          -43.50555556,
          -20.38888889
        ]
      }
    },
    {
      "type": "Feature",
      "properties": {
        "名称": "Historic Centre of the Town of Olinda",
        "国": "Brazil",
        "種別": "文化遺産",
        "登録年": 1982
      },
      "geometry": {
        "type": "Point",
        "coordinates": [
          -34.845,
          -8.013333333
        ]
      }
    },
    {
      "type": "Feature",
      "properties": {
        "名称": "Historic Centre of Salvador de Bahia",
        "国": "Brazil",
        "種別": "文化遺産",
        "登録年": 1985
      },
      "geometry": {
        "type": "Point",
        "coordinates": [
          -38.512981,
          -12.972917
        ]
      }
    },
    {
      "type": "Feature",
      "properties": {
        "名称": "Sanctuary of Bom Jesus do Congonhas",
        "国": "Brazil",
        "種別": "文化遺産",
        "登録年": 1985
      },
      "geometry": {
        "type": "Point",
        "coordinates": [
          -43.860806,
          -20.508201
        ]
      }
    },
    {
      "type": "Feature",
      "properties": {
        "名称": "Iguaçu National Park",
        "国": "Brazil",
        "種別": "自然遺産",
        "登録年": 1986
      },
      "geometry": {
        "type": "Point",
        "coordinates": [
          -53.8001444444,
          -25.4481472222
        ]
      }
    },
    {
      "type": "Feature",
      "properties": {
        "名称": "Brasilia",
        "国": "Brazil",
        "種別": "文化遺産",
        "登録年": 1987
      },
      "geometry": {
        "type": "Point",
        "coordinates": [
          -47.9,
          -15.78333
        ]
      }
    },
    {
      "type": "Feature",
      "properties": {
        "名称": "Serra da Capivara National Park",
        "国": "Brazil",
        "種別": "文化遺産",
        "登録年": 1991
      },
      "geometry": {
        "type": "Point",
        "coordinates": [
          -42.652436,
          -8.718634
        ]
      }
    },
    {
      "type": "Feature",
      "properties": {
        "名称": "Historic Centre of São Luís",
        "国": "Brazil",
        "種別": "文化遺産",
        "登録年": 1997
      },
      "geometry": {
        "type": "Point",
        "coordinates": [
          -44.303369,
          -2.530054
        ]
      }
    },
    {
      "type": "Feature",
      "properties": {
        "名称": "Historic Centre of the Town of Diamantina",
        "国": "Brazil",
        "種別": "文化遺産",
        "登録年": 1999
      },
      "geometry": {
        "type": "Point",
        "coordinates": [
          -43.59768,
          -18.244776
        ]
      }
    },
    {
      "type": "Feature",
      "properties": {
        "名称": "Discovery Coast Atlantic Forest Reserves",
        "国": "Brazil",
        "種別": "自然遺産",
        "登録年": 1999
      },
      "geometry": {
        "type": "Point",
        "coordinates": [
          -39.25,
          -16.5
        ]
      }
    },
    {
      "type": "Feature",
      "properties": {
        "名称": "Atlantic Forest South-East Reserves",
        "国": "Brazil",
        "種別": "自然遺産",
        "登録年": 1999
      },
      "geometry": {
        "type": "Point",
        "coordinates": [
          -48.0,
          -24.16667
        ]
      }
    },
    {
      "type": "Feature",
      "properties": {
        "名称": "Historic Centre of the Town of Goiás",
        "国": "Brazil",
        "種別": "文化遺産",
        "登録年": 2001
      },
      "geometry": {
        "type": "Point",
        "coordinates": [
          -50.140164,
          -15.934231
        ]
      }
    },
    {
      "type": "Feature",
      "properties": {
        "名称": "Central Amazon Conservation Complex",
        "国": "Brazil",
        "種別": "自然遺産",
        "登録年": 2000
      },
      "geometry": {
        "type": "Point",
        "coordinates": [
          -62.00833333,
          -2.333333333
        ]
      }
    },
    {
      "type": "Feature",
      "properties": {
        "名称": "Pantanal Conservation Area",
        "国": "Brazil",
        "種別": "自然遺産",
        "登録年": 2000
      },
      "geometry": {
        "type": "Point",
        "coordinates": [
          -57.461874,
          -17.670318
        ]
      }
    },
    {
      "type": "Feature",
      "properties": {
        "名称": "Brazilian Atlantic Islands: Fernando de Noronha and Atol das Rocas Reserves",
        "国": "Brazil",
        "種別": "自然遺産",
        "登録年": 2001
      },
      "geometry": {
        "type": "Point",
        "coordinates": [
          -32.42511111,
          -3.857944444
        ]
      }
    },
    {
      "type": "Feature",
      "properties": {
        "名称": "Cerrado Protected Areas: Chapada dos Veadeiros and Emas National Parks",
        "国": "Brazil",
        "種別": "自然遺産",
        "登録年": 2001
      },
      "geometry": {
        "type": "Point",
        "coordinates": [
          -47.68461111,
          -14.00569444
        ]
      }
    },
    {
      "type": "Feature",
      "properties": {
        "名称": "Rio de Janeiro: Carioca Landscapes between the Mountain and the Sea",
        "国": "Brazil",
        "種別": "文化遺産",
        "登録年": 2012
      },
      "geometry": {
        "type": "Point",
        "coordinates": [
          -43.2913888889,
          -22.9477777778
        ]
      }
    },
    {
      "type": "Feature",
      "properties": {
        "名称": "São Francisco Square in the Town of São Cristóvão",
        "国": "Brazil",
        "種別": "文化遺産",
        "登録年": 2010
      },
      "geometry": {
        "type": "Point",
        "coordinates": [
          -37.2053747585,
          -11.0136554428
        ]
      }
    },
    {
      "type": "Feature",
      "properties": {
        "名称": "Paraty and Ilha Grande – Culture and Biodiversity",
        "国": "Brazil",
        "種別": "複合遺産",
        "登録年": 2019
      },
      "geometry": {
        "type": "Point",
        "coordinates": [
          -44.6853694444,
          -23.0186055556
        ]
      }
    },
    {
      "type": "Feature",
      "properties": {
        "名称": "Pampulha Modern Ensemble",
        "国": "Brazil",
        "種別": "文化遺産",
        "登録年": 2016
      },
      "geometry": {
        "type": "Point",
        "coordinates": [
          -43.9736111111,
          -19.8519444444
        ]
      }
    },
    {
      "type": "Feature",
      "properties": {
        "名称": "Valongo Wharf Archaeological Site",
        "国": "Brazil",
        "種別": "文化遺産",
        "登録年": 2017
      },
      "geometry": {
        "type": "Point",
        "coordinates": [
          -43.1873944444,
          -22.8971111111
        ]
      }
    },
    {
      "type": "Feature",
      "properties": {
        "名称": "Lençóis Maranhenses National Park",
        "国": "Brazil",
        "種別": "自然遺産",
        "登録年": 2024
      },
      "geometry": {
        "type": "Point",
        "coordinates": [
          -43.0636111111,
          -2.5366666667
        ]
      }
    },
    {
      "type": "Feature",
      "properties": {
        "名称": "Sítio Roberto Burle Marx",
        "国": "Brazil",
        "種別": "文化遺産",
        "登録年": 2021
      },
      "geometry": {
        "type": "Point",
        "coordinates": [
          -43.5462222222,
          -23.0223777778
        ]
      }
    },
    {
      "type": "Feature",
      "properties": {
        "名称": "Boyana Church",
        "国": "Bulgaria",
        "種別": "文化遺産",
        "登録年": 1979
      },
      "geometry": {
        "type": "Point",
        "coordinates": [
          23.2661827778,
          42.6446319444
        ]
      }
    },
    {
      "type": "Feature",
      "properties": {
        "名称": "Madara Rider",
        "国": "Bulgaria",
        "種別": "文化遺産",
        "登録年": 1979
      },
      "geometry": {
        "type": "Point",
        "coordinates": [
          27.118894,
          43.277375
        ]
      }
    },
    {
      "type": "Feature",
      "properties": {
        "名称": "Thracian Tomb of Kazanlak",
        "国": "Bulgaria",
        "種別": "文化遺産",
        "登録年": 1979
      },
      "geometry": {
        "type": "Point",
        "coordinates": [
          25.399172,
          42.625774
        ]
      }
    },
    {
      "type": "Feature",
      "properties": {
        "名称": "Rock-Hewn Churches of Ivanovo",
        "国": "Bulgaria",
        "種別": "文化遺産",
        "登録年": 1979
      },
      "geometry": {
        "type": "Point",
        "coordinates": [
          25.987893,
          43.694858
        ]
      }
    },
    {
      "type": "Feature",
      "properties": {
        "名称": "Rila Monastery",
        "国": "Bulgaria",
        "種別": "文化遺産",
        "登録年": 1983
      },
      "geometry": {
        "type": "Point",
        "coordinates": [
          23.340187,
          42.133298
        ]
      }
    },
    {
      "type": "Feature",
      "properties": {
        "名称": "Ancient City of Nessebar",
        "国": "Bulgaria",
        "種別": "文化遺産",
        "登録年": 1983
      },
      "geometry": {
        "type": "Point",
        "coordinates": [
          27.7360277778,
          42.6591111111
        ]
      }
    },
    {
      "type": "Feature",
      "properties": {
        "名称": "Srebarna Nature Reserve",
        "国": "Bulgaria",
        "種別": "自然遺産",
        "登録年": 1983
      },
      "geometry": {
        "type": "Point",
        "coordinates": [
          27.07806,
          44.11444
        ]
      }
    },
    {
      "type": "Feature",
      "properties": {
        "名称": "Pirin National Park",
        "国": "Bulgaria",
        "種別": "自然遺産",
        "登録年": 1983
      },
      "geometry": {
        "type": "Point",
        "coordinates": [
          23.4304722222,
          41.7427222222
        ]
      }
    },
    {
      "type": "Feature",
      "properties": {
        "名称": "Thracian Tomb of Sveshtari",
        "国": "Bulgaria",
        "種別": "文化遺産",
        "登録年": 1985
      },
      "geometry": {
        "type": "Point",
        "coordinates": [
          26.66667,
          43.66667
        ]
      }
    },
    {
      "type": "Feature",
      "properties": {
        "名称": "Ruins of Loropéni",
        "国": "Burkina Faso",
        "種別": "文化遺産",
        "登録年": 2009
      },
      "geometry": {
        "type": "Point",
        "coordinates": [
          -3.5833333333,
          10.25
        ]
      }
    },
    {
      "type": "Feature",
      "properties": {
        "名称": "Ancient Ferrous Metallurgy Sites of Burkina Faso",
        "国": "Burkina Faso",
        "種別": "文化遺産",
        "登録年": 2019
      },
      "geometry": {
        "type": "Point",
        "coordinates": [
          -3.3289861111,
          12.5877583333
        ]
      }
    },
    {
      "type": "Feature",
      "properties": {
        "名称": "Royal Court of Tiébélé",
        "国": "Burkina Faso",
        "種別": "文化遺産",
        "登録年": 2024
      },
      "geometry": {
        "type": "Point",
        "coordinates": [
          -0.9618611111,
          11.0892222222
        ]
      }
    },
    {
      "type": "Feature",
      "properties": {
        "名称": "Cidade Velha, Historic Centre of Ribeira Grande",
        "国": "Cabo Verde",
        "種別": "文化遺産",
        "登録年": 2009
      },
      "geometry": {
        "type": "Point",
        "coordinates": [
          -23.6051944444,
          14.9151388889
        ]
      }
    },
    {
      "type": "Feature",
      "properties": {
        "名称": "Angkor",
        "国": "Cambodia",
        "種別": "文化遺産",
        "登録年": 1992
      },
      "geometry": {
        "type": "Point",
        "coordinates": [
          103.8333333,
          13.43333333
        ]
      }
    },
    {
      "type": "Feature",
      "properties": {
        "名称": "Temple of Preah Vihear",
        "国": "Cambodia",
        "種別": "文化遺産",
        "登録年": 2008
      },
      "geometry": {
        "type": "Point",
        "coordinates": [
          104.6838888889,
          14.3883333333
        ]
      }
    },
    {
      "type": "Feature",
      "properties": {
        "名称": "Temple Zone of Sambor Prei Kuk, Archaeological Site of Ancient Ishanapura",
        "国": "Cambodia",
        "種別": "文化遺産",
        "登録年": 2017
      },
      "geometry": {
        "type": "Point",
        "coordinates": [
          105.0430555556,
          12.8725
        ]
      }
    },
    {
      "type": "Feature",
      "properties": {
        "名称": "Koh Ker: Archaeological Site of Ancient Lingapura or Chok Gargyar",
        "国": "Cambodia",
        "種別": "文化遺産",
        "登録年": 2023
      },
      "geometry": {
        "type": "Point",
        "coordinates": [
          104.5372222222,
          13.7830555556
        ]
      }
    },
    {
      "type": "Feature",
      "properties": {
        "名称": "Dja Faunal Reserve",
        "国": "Cameroon",
        "種別": "自然遺産",
        "登録年": 1987
      },
      "geometry": {
        "type": "Point",
        "coordinates": [
          13.0,
          3.0
        ]
      }
    },
    {
      "type": "Feature",
      "properties": {
        "名称": "L’Anse aux Meadows National Historic Site",
        "国": "Canada",
        "種別": "文化遺産",
        "登録年": 1978
      },
      "geometry": {
        "type": "Point",
        "coordinates": [
          -55.55,
          51.5847222222
        ]
      }
    },
    {
      "type": "Feature",
      "properties": {
        "名称": "Nahanni National Park",
        "国": "Canada",
        "種別": "自然遺産",
        "登録年": 1978
      },
      "geometry": {
        "type": "Point",
        "coordinates": [
          -125.5894444,
          61.54722222
        ]
      }
    },
    {
      "type": "Feature",
      "properties": {
        "名称": "Dinosaur Provincial Park",
        "国": "Canada",
        "種別": "自然遺産",
        "登録年": 1979
      },
      "geometry": {
        "type": "Point",
        "coordinates": [
          -111.4922222,
          50.76777778
        ]
      }
    },
    {
      "type": "Feature",
      "properties": {
        "名称": "S<U>G</U>ang Gwaay",
        "国": "Canada",
        "種別": "文化遺産",
        "登録年": 1981
      },
      "geometry": {
        "type": "Point",
        "coordinates": [
          -131.2202778,
          52.095
        ]
      }
    },
    {
      "type": "Feature",
      "properties": {
        "名称": "Head-Smashed-In Buffalo Jump",
        "国": "Canada",
        "種別": "文化遺産",
        "登録年": 1981
      },
      "geometry": {
        "type": "Point",
        "coordinates": [
          -113.6520527778,
          49.7084055556
        ]
      }
    },
    {
      "type": "Feature",
      "properties": {
        "名称": "Wood Buffalo National Park",
        "国": "Canada",
        "種別": "自然遺産",
        "登録年": 1983
      },
      "geometry": {
        "type": "Point",
        "coordinates": [
          -112.2933333,
          59.35833333
        ]
      }
    },
    {
      "type": "Feature",
      "properties": {
        "名称": "Historic District of Old Québec",
        "国": "Canada",
        "種別": "文化遺産",
        "登録年": 1985
      },
      "geometry": {
        "type": "Point",
        "coordinates": [
          -71.21055556,
          46.80944444
        ]
      }
    },
    {
      "type": "Feature",
      "properties": {
        "名称": "Canadian Rocky Mountain Parks",
        "国": "Canada",
        "種別": "自然遺産",
        "登録年": 1984
      },
      "geometry": {
        "type": "Point",
        "coordinates": [
          -116.4797222,
          51.42472222
        ]
      }
    },
    {
      "type": "Feature",
      "properties": {
        "名称": "Gros Morne National Park",
        "国": "Canada",
        "種別": "自然遺産",
        "登録年": 1987
      },
      "geometry": {
        "type": "Point",
        "coordinates": [
          -57.53138889,
          49.6125
        ]
      }
    },
    {
      "type": "Feature",
      "properties": {
        "名称": "Miguasha National Park",
        "国": "Canada",
        "種別": "自然遺産",
        "登録年": 1999
      },
      "geometry": {
        "type": "Point",
        "coordinates": [
          -66.35305556,
          48.105
        ]
      }
    },
    {
      "type": "Feature",
      "properties": {
        "名称": "Old Town Lunenburg",
        "国": "Canada",
        "種別": "文化遺産",
        "登録年": 1995
      },
      "geometry": {
        "type": "Point",
        "coordinates": [
          -64.30916667,
          44.37611111
        ]
      }
    },
    {
      "type": "Feature",
      "properties": {
        "名称": "Rideau Canal",
        "国": "Canada",
        "種別": "文化遺産",
        "登録年": 2007
      },
      "geometry": {
        "type": "Point",
        "coordinates": [
          -75.765125,
          44.9943861111
        ]
      }
    },
    {
      "type": "Feature",
      "properties": {
        "名称": "Joggins Fossil Cliffs",
        "国": "Canada",
        "種別": "自然遺産",
        "登録年": 2008
      },
      "geometry": {
        "type": "Point",
        "coordinates": [
          -64.4358333333,
          45.7097222222
        ]
      }
    },
    {
      "type": "Feature",
      "properties": {
        "名称": "Landscape of Grand Pré",
        "国": "Canada",
        "種別": "文化遺産",
        "登録年": 2012
      },
      "geometry": {
        "type": "Point",
        "coordinates": [
          -64.3072222222,
          45.1183333333
        ]
      }
    },
    {
      "type": "Feature",
      "properties": {
        "名称": "Red Bay Basque Whaling Station",
        "国": "Canada",
        "種別": "文化遺産",
        "登録年": 2013
      },
      "geometry": {
        "type": "Point",
        "coordinates": [
          -56.4295222222,
          51.726925
        ]
      }
    },
    {
      "type": "Feature",
      "properties": {
        "名称": "Pimachiowin Aki",
        "国": "Canada",
        "種別": "複合遺産",
        "登録年": 2018
      },
      "geometry": {
        "type": "Point",
        "coordinates": [
          -95.4112777778,
          51.8264166667
        ]
      }
    },
    {
      "type": "Feature",
      "properties": {
        "名称": "Mistaken Point",
        "国": "Canada",
        "種別": "自然遺産",
        "登録年": 2016
      },
      "geometry": {
        "type": "Point",
        "coordinates": [
          -53.2111111111,
          46.635
        ]
      }
    },
    {
      "type": "Feature",
      "properties": {
        "名称": "Tr’ondëk-Klondike",
        "国": "Canada",
        "種別": "文化遺産",
        "登録年": 2023
      },
      "geometry": {
        "type": "Point",
        "coordinates": [
          -139.4399472222,
          64.0503472222
        ]
      }
    },
    {
      "type": "Feature",
      "properties": {
        "名称": "Writing-on-Stone / Áísínai’pi",
        "国": "Canada",
        "種別": "文化遺産",
        "登録年": 2019
      },
      "geometry": {
        "type": "Point",
        "coordinates": [
          -111.6333333333,
          49.075
        ]
      }
    },
    {
      "type": "Feature",
      "properties": {
        "名称": "Anticosti",
        "国": "Canada",
        "種別": "自然遺産",
        "登録年": 2023
      },
      "geometry": {
        "type": "Point",
        "coordinates": [
          -63.2452777778,
          49.5386111111
        ]
      }
    },
    {
      "type": "Feature",
      "properties": {
        "名称": "Manovo-Gounda St Floris National Park",
        "国": "Central African Republic",
        "種別": "自然遺産",
        "登録年": 1988
      },
      "geometry": {
        "type": "Point",
        "coordinates": [
          21.5,
          9.0
        ]
      }
    },
    {
      "type": "Feature",
      "properties": {
        "名称": "Lakes of Ounianga",
        "国": "Chad",
        "種別": "自然遺産",
        "登録年": 2012
      },
      "geometry": {
        "type": "Point",
        "coordinates": [
          20.5055555556,
          19.055
        ]
      }
    },
    {
      "type": "Feature",
      "properties": {
        "名称": "Ennedi Massif: Natural and Cultural Landscape",
        "国": "Chad",
        "種別": "複合遺産",
        "登録年": 2016
      },
      "geometry": {
        "type": "Point",
        "coordinates": [
          21.8627777778,
          17.0416666667
        ]
      }
    },
    {
      "type": "Feature",
      "properties": {
        "名称": "Rapa Nui National Park",
        "国": "Chile",
        "種別": "文化遺産",
        "登録年": 1995
      },
      "geometry": {
        "type": "Point",
        "coordinates": [
          -109.365683,
          -27.074403
        ]
      }
    },
    {
      "type": "Feature",
      "properties": {
        "名称": "Historic Quarter of the Seaport City of Valparaíso",
        "国": "Chile",
        "種別": "文化遺産",
        "登録年": 2003
      },
      "geometry": {
        "type": "Point",
        "coordinates": [
          -71.628,
          -33.04063889
        ]
      }
    },
    {
      "type": "Feature",
      "properties": {
        "名称": "Churches of Chiloé",
        "国": "Chile",
        "種別": "文化遺産",
        "登録年": 2000
      },
      "geometry": {
        "type": "Point",
        "coordinates": [
          -73.76666667,
          -42.5
        ]
      }
    },
    {
      "type": "Feature",
      "properties": {
        "名称": "Humberstone and Santa Laura Saltpeter Works",
        "国": "Chile",
        "種別": "文化遺産",
        "登録年": 2005
      },
      "geometry": {
        "type": "Point",
        "coordinates": [
          -69.79406,
          -20.20582
        ]
      }
    },
    {
      "type": "Feature",
      "properties": {
        "名称": "Sewell Mining Town",
        "国": "Chile",
        "種別": "文化遺産",
        "登録年": 2006
      },
      "geometry": {
        "type": "Point",
        "coordinates": [
          -70.3827777777,
          -34.0844444444
        ]
      }
    },
    {
      "type": "Feature",
      "properties": {
        "名称": "Settlement and Artificial Mummification of the Chinchorro Culture in the Arica and Parinacota Region",
        "国": "Chile",
        "種別": "文化遺産",
        "登録年": 2021
      },
      "geometry": {
        "type": "Point",
        "coordinates": [
          -70.3215722222,
          -18.4819611111
        ]
      }
    },
    {
      "type": "Feature",
      "properties": {
        "名称": "Mount Taishan",
        "国": "China",
        "種別": "複合遺産",
        "登録年": 1987
      },
      "geometry": {
        "type": "Point",
        "coordinates": [
          117.1,
          36.26667
        ]
      }
    },
    {
      "type": "Feature",
      "properties": {
        "名称": "The Great Wall",
        "国": "China",
        "種別": "文化遺産",
        "登録年": 1987
      },
      "geometry": {
        "type": "Point",
        "coordinates": [
          116.08333,
          40.41667
        ]
      }
    },
    {
      "type": "Feature",
      "properties": {
        "名称": "Imperial Palaces of the Ming and Qing Dynasties in Beijing and Shenyang",
        "国": "China",
        "種別": "文化遺産",
        "登録年": 1987
      },
      "geometry": {
        "type": "Point",
        "coordinates": [
          123.4469444,
          41.79416667
        ]
      }
    },
    {
      "type": "Feature",
      "properties": {
        "名称": "Mogao Caves",
        "国": "China",
        "種別": "文化遺産",
        "登録年": 1987
      },
      "geometry": {
        "type": "Point",
        "coordinates": [
          94.81667,
          40.13333
        ]
      }
    },
    {
      "type": "Feature",
      "properties": {
        "名称": "Mausoleum of the First Qin Emperor",
        "国": "China",
        "種別": "文化遺産",
        "登録年": 1987
      },
      "geometry": {
        "type": "Point",
        "coordinates": [
          109.259951,
          34.381311
        ]
      }
    },
    {
      "type": "Feature",
      "properties": {
        "名称": "Peking Man Site at Zhoukoudian",
        "国": "China",
        "種別": "文化遺産",
        "登録年": 1987
      },
      "geometry": {
        "type": "Point",
        "coordinates": [
          115.922702,
          39.689449
        ]
      }
    },
    {
      "type": "Feature",
      "properties": {
        "名称": "Mount Huangshan",
        "国": "China",
        "種別": "複合遺産",
        "登録年": 1990
      },
      "geometry": {
        "type": "Point",
        "coordinates": [
          118.155083,
          30.145333
        ]
      }
    },
    {
      "type": "Feature",
      "properties": {
        "名称": "Jiuzhaigou Valley Scenic and Historic Interest Area",
        "国": "China",
        "種別": "自然遺産",
        "登録年": 1992
      },
      "geometry": {
        "type": "Point",
        "coordinates": [
          103.91667,
          33.08333
        ]
      }
    },
    {
      "type": "Feature",
      "properties": {
        "名称": "Huanglong Scenic and Historic Interest Area",
        "国": "China",
        "種別": "自然遺産",
        "登録年": 1992
      },
      "geometry": {
        "type": "Point",
        "coordinates": [
          103.82222,
          32.75417
        ]
      }
    },
    {
      "type": "Feature",
      "properties": {
        "名称": "Wulingyuan Scenic and Historic Interest Area",
        "国": "China",
        "種別": "自然遺産",
        "登録年": 1992
      },
      "geometry": {
        "type": "Point",
        "coordinates": [
          110.5,
          29.33333
        ]
      }
    },
    {
      "type": "Feature",
      "properties": {
        "名称": "Mountain Resort and its Outlying Temples, Chengde",
        "国": "China",
        "種別": "文化遺産",
        "登録年": 1994
      },
      "geometry": {
        "type": "Point",
        "coordinates": [
          117.93833,
          40.98694
        ]
      }
    },
    {
      "type": "Feature",
      "properties": {
        "名称": "Temple and Cemetery of Confucius and the Kong Family Mansion in Qufu",
        "国": "China",
        "種別": "文化遺産",
        "登録年": 1994
      },
      "geometry": {
        "type": "Point",
        "coordinates": [
          116.994561,
          35.613215
        ]
      }
    },
    {
      "type": "Feature",
      "properties": {
        "名称": "Ancient Building Complex in the Wudang Mountains",
        "国": "China",
        "種別": "文化遺産",
        "登録年": 1994
      },
      "geometry": {
        "type": "Point",
        "coordinates": [
          111.0,
          32.46667
        ]
      }
    },
    {
      "type": "Feature",
      "properties": {
        "名称": "Historic Ensemble of the Potala Palace, Lhasa",
        "国": "China",
        "種別": "文化遺産",
        "登録年": 1994
      },
      "geometry": {
        "type": "Point",
        "coordinates": [
          91.11717,
          29.65792
        ]
      }
    },
    {
      "type": "Feature",
      "properties": {
        "名称": "Lushan National Park",
        "国": "China",
        "種別": "文化遺産",
        "登録年": 1996
      },
      "geometry": {
        "type": "Point",
        "coordinates": [
          115.8666667,
          29.43333333
        ]
      }
    },
    {
      "type": "Feature",
      "properties": {
        "名称": "Mount Emei Scenic Area, including Leshan Giant Buddha Scenic Area",
        "国": "China",
        "種別": "複合遺産",
        "登録年": 1996
      },
      "geometry": {
        "type": "Point",
        "coordinates": [
          103.76925,
          29.5449
        ]
      }
    },
    {
      "type": "Feature",
      "properties": {
        "名称": "Old Town of Lijiang",
        "国": "China",
        "種別": "文化遺産",
        "登録年": 1997
      },
      "geometry": {
        "type": "Point",
        "coordinates": [
          100.23333,
          26.86667
        ]
      }
    },
    {
      "type": "Feature",
      "properties": {
        "名称": "Ancient City of Ping Yao",
        "国": "China",
        "種別": "文化遺産",
        "登録年": 1997
      },
      "geometry": {
        "type": "Point",
        "coordinates": [
          112.15444,
          37.20139
        ]
      }
    },
    {
      "type": "Feature",
      "properties": {
        "名称": "Classical Gardens of Suzhou",
        "国": "China",
        "種別": "文化遺産",
        "登録年": 1997
      },
      "geometry": {
        "type": "Point",
        "coordinates": [
          120.45,
          31.31666667
        ]
      }
    },
    {
      "type": "Feature",
      "properties": {
        "名称": "Summer Palace, an Imperial Garden in Beijing",
        "国": "China",
        "種別": "文化遺産",
        "登録年": 1998
      },
      "geometry": {
        "type": "Point",
        "coordinates": [
          116.1411111,
          39.91055556
        ]
      }
    },
    {
      "type": "Feature",
      "properties": {
        "名称": "Temple of Heaven: an Imperial Sacrificial Altar in Beijing",
        "国": "China",
        "種別": "文化遺産",
        "登録年": 1998
      },
      "geometry": {
        "type": "Point",
        "coordinates": [
          116.4447222,
          39.84555556
        ]
      }
    },
    {
      "type": "Feature",
      "properties": {
        "名称": "Mount Wuyi",
        "国": "China",
        "種別": "複合遺産",
        "登録年": 1999
      },
      "geometry": {
        "type": "Point",
        "coordinates": [
          117.7252777778,
          27.7263888889
        ]
      }
    },
    {
      "type": "Feature",
      "properties": {
        "名称": "Dazu Rock Carvings",
        "国": "China",
        "種別": "文化遺産",
        "登録年": 1999
      },
      "geometry": {
        "type": "Point",
        "coordinates": [
          105.705,
          29.70111
        ]
      }
    },
    {
      "type": "Feature",
      "properties": {
        "名称": "Mount Qingcheng and the Dujiangyan Irrigation System",
        "国": "China",
        "種別": "文化遺産",
        "登録年": 2000
      },
      "geometry": {
        "type": "Point",
        "coordinates": [
          103.60528,
          31.00167
        ]
      }
    },
    {
      "type": "Feature",
      "properties": {
        "名称": "Ancient Villages in Southern Anhui – Xidi and Hongcun",
        "国": "China",
        "種別": "文化遺産",
        "登録年": 2000
      },
      "geometry": {
        "type": "Point",
        "coordinates": [
          117.9875,
          29.90444444
        ]
      }
    },
    {
      "type": "Feature",
      "properties": {
        "名称": "Longmen Grottoes",
        "国": "China",
        "種別": "文化遺産",
        "登録年": 2000
      },
      "geometry": {
        "type": "Point",
        "coordinates": [
          112.4666667,
          34.46666667
        ]
      }
    },
    {
      "type": "Feature",
      "properties": {
        "名称": "Imperial Tombs of the Ming and Qing Dynasties",
        "国": "China",
        "種別": "文化遺産",
        "登録年": 2000
      },
      "geometry": {
        "type": "Point",
        "coordinates": [
          124.7938889,
          41.70722222
        ]
      }
    },
    {
      "type": "Feature",
      "properties": {
        "名称": "Yungang Grottoes",
        "国": "China",
        "種別": "文化遺産",
        "登録年": 2001
      },
      "geometry": {
        "type": "Point",
        "coordinates": [
          113.12222,
          40.10972
        ]
      }
    },
    {
      "type": "Feature",
      "properties": {
        "名称": "Three Parallel Rivers of Yunnan Protected Areas",
        "国": "China",
        "種別": "自然遺産",
        "登録年": 2003
      },
      "geometry": {
        "type": "Point",
        "coordinates": [
          98.40638889,
          27.895
        ]
      }
    },
    {
      "type": "Feature",
      "properties": {
        "名称": "Historic Centre of Macao",
        "国": "China",
        "種別": "文化遺産",
        "登録年": 2005
      },
      "geometry": {
        "type": "Point",
        "coordinates": [
          113.5364611111,
          22.1912919444
        ]
      }
    },
    {
      "type": "Feature",
      "properties": {
        "名称": "Cultural Landscape of Honghe Hani Rice Terraces",
        "国": "China",
        "種別": "文化遺産",
        "登録年": 2013
      },
      "geometry": {
        "type": "Point",
        "coordinates": [
          102.7799805556,
          23.0932777778
        ]
      }
    },
    {
      "type": "Feature",
      "properties": {
        "名称": "Kaiping Diaolou and Villages",
        "国": "China",
        "種別": "文化遺産",
        "登録年": 2007
      },
      "geometry": {
        "type": "Point",
        "coordinates": [
          112.5658611111,
          22.2855194444
        ]
      }
    },
    {
      "type": "Feature",
      "properties": {
        "名称": "Fujian <em>Tulou</em>",
        "国": "China",
        "種別": "文化遺産",
        "登録年": 2008
      },
      "geometry": {
        "type": "Point",
        "coordinates": [
          117.6858333333,
          25.0230555556
        ]
      }
    },
    {
      "type": "Feature",
      "properties": {
        "名称": "Yin Xu",
        "国": "China",
        "種別": "文化遺産",
        "登録年": 2006
      },
      "geometry": {
        "type": "Point",
        "coordinates": [
          114.3138888888,
          36.1266666666
        ]
      }
    },
    {
      "type": "Feature",
      "properties": {
        "名称": "Capital Cities and Tombs of the Ancient Koguryo Kingdom",
        "国": "China",
        "種別": "文化遺産",
        "登録年": 2004
      },
      "geometry": {
        "type": "Point",
        "coordinates": [
          126.1872222,
          41.15694444
        ]
      }
    },
    {
      "type": "Feature",
      "properties": {
        "名称": "Sichuan Giant Panda Sanctuaries - Wolong, Mt Siguniang and Jiajin Mountains",
        "国": "China",
        "種別": "自然遺産",
        "登録年": 2006
      },
      "geometry": {
        "type": "Point",
        "coordinates": [
          103.0,
          30.8333333333
        ]
      }
    },
    {
      "type": "Feature",
      "properties": {
        "名称": "South China Karst",
        "国": "China",
        "種別": "自然遺産",
        "登録年": 2007
      },
      "geometry": {
        "type": "Point",
        "coordinates": [
          110.3544444444,
          24.9233333333
        ]
      }
    },
    {
      "type": "Feature",
      "properties": {
        "名称": "Mount Wutai",
        "国": "China",
        "種別": "文化遺産",
        "登録年": 2009
      },
      "geometry": {
        "type": "Point",
        "coordinates": [
          113.5633333333,
          39.0305555556
        ]
      }
    },
    {
      "type": "Feature",
      "properties": {
        "名称": "Mount Sanqingshan National Park",
        "国": "China",
        "種別": "自然遺産",
        "登録年": 2008
      },
      "geometry": {
        "type": "Point",
        "coordinates": [
          118.0644444444,
          28.9158333333
        ]
      }
    },
    {
      "type": "Feature",
      "properties": {
        "名称": "Historic Monuments of Dengfeng in “The Centre of Heaven and Earth”",
        "国": "China",
        "種別": "文化遺産",
        "登録年": 2010
      },
      "geometry": {
        "type": "Point",
        "coordinates": [
          113.0677194444,
          34.4587472222
        ]
      }
    },
    {
      "type": "Feature",
      "properties": {
        "名称": "West Lake Cultural Landscape of Hangzhou",
        "国": "China",
        "種別": "文化遺産",
        "登録年": 2011
      },
      "geometry": {
        "type": "Point",
        "coordinates": [
          120.1408333333,
          30.2375
        ]
      }
    },
    {
      "type": "Feature",
      "properties": {
        "名称": "China Danxia",
        "国": "China",
        "種別": "自然遺産",
        "登録年": 2010
      },
      "geometry": {
        "type": "Point",
        "coordinates": [
          106.0425,
          28.4219444444
        ]
      }
    },
    {
      "type": "Feature",
      "properties": {
        "名称": "Chengjiang Fossil Site",
        "国": "China",
        "種別": "自然遺産",
        "登録年": 2012
      },
      "geometry": {
        "type": "Point",
        "coordinates": [
          102.9772222222,
          24.6688888889
        ]
      }
    },
    {
      "type": "Feature",
      "properties": {
        "名称": "Site of Xanadu",
        "国": "China",
        "種別": "文化遺産",
        "登録年": 2012
      },
      "geometry": {
        "type": "Point",
        "coordinates": [
          116.1851277778,
          42.358
        ]
      }
    },
    {
      "type": "Feature",
      "properties": {
        "名称": "Xinjiang Tianshan",
        "国": "China",
        "種別": "自然遺産",
        "登録年": 2013
      },
      "geometry": {
        "type": "Point",
        "coordinates": [
          80.3541666667,
          41.9683333333
        ]
      }
    },
    {
      "type": "Feature",
      "properties": {
        "名称": "The Grand Canal",
        "国": "China",
        "種別": "文化遺産",
        "登録年": 2014
      },
      "geometry": {
        "type": "Point",
        "coordinates": [
          112.4683333333,
          34.6938888889
        ]
      }
    },
    {
      "type": "Feature",
      "properties": {
        "名称": "Tusi Sites",
        "国": "China",
        "種別": "文化遺産",
        "登録年": 2015
      },
      "geometry": {
        "type": "Point",
        "coordinates": [
          109.9669444444,
          28.9986111111
        ]
      }
    },
    {
      "type": "Feature",
      "properties": {
        "名称": "Zuojiang Huashan Rock Art Cultural Landscape",
        "国": "China",
        "種別": "文化遺産",
        "登録年": 2016
      },
      "geometry": {
        "type": "Point",
        "coordinates": [
          107.0230555556,
          22.2555555556
        ]
      }
    },
    {
      "type": "Feature",
      "properties": {
        "名称": "Hubei Shennongjia",
        "国": "China",
        "種別": "自然遺産",
        "登録年": 2016
      },
      "geometry": {
        "type": "Point",
        "coordinates": [
          110.2077777778,
          31.4697222222
        ]
      }
    },
    {
      "type": "Feature",
      "properties": {
        "名称": "Qinghai Hoh Xil",
        "国": "China",
        "種別": "自然遺産",
        "登録年": 2017
      },
      "geometry": {
        "type": "Point",
        "coordinates": [
          92.4391666667,
          35.3802777778
        ]
      }
    },
    {
      "type": "Feature",
      "properties": {
        "名称": "Kulangsu, a Historic International Settlement",
        "国": "China",
        "種別": "文化遺産",
        "登録年": 2017
      },
      "geometry": {
        "type": "Point",
        "coordinates": [
          118.0619444444,
          24.4475
        ]
      }
    },
    {
      "type": "Feature",
      "properties": {
        "名称": "Fanjingshan",
        "国": "China",
        "種別": "自然遺産",
        "登録年": 2018
      },
      "geometry": {
        "type": "Point",
        "coordinates": [
          108.68,
          27.8955555556
        ]
      }
    },
    {
      "type": "Feature",
      "properties": {
        "名称": "Quanzhou: Emporium of the World in Song-Yuan China",
        "国": "China",
        "種別": "文化遺産",
        "登録年": 2021
      },
      "geometry": {
        "type": "Point",
        "coordinates": [
          118.4441666667,
          24.7102777778
        ]
      }
    },
    {
      "type": "Feature",
      "properties": {
        "名称": "Archaeological Ruins of Liangzhu City",
        "国": "China",
        "種別": "文化遺産",
        "登録年": 2019
      },
      "geometry": {
        "type": "Point",
        "coordinates": [
          119.9908333333,
          30.3955555556
        ]
      }
    },
    {
      "type": "Feature",
      "properties": {
        "名称": "Migratory Bird Sanctuaries along the Coast of Yellow Sea-Bohai Gulf of China",
        "国": "China",
        "種別": "自然遺産",
        "登録年": 2019
      },
      "geometry": {
        "type": "Point",
        "coordinates": [
          121.9993888889,
          31.5129166667
        ]
      }
    },
    {
      "type": "Feature",
      "properties": {
        "名称": "Badain Jaran Desert - Towers of Sand and Lakes",
        "国": "China",
        "種別": "自然遺産",
        "登録年": 2024
      },
      "geometry": {
        "type": "Point",
        "coordinates": [
          102.2894444444,
          39.8897222222
        ]
      }
    },
    {
      "type": "Feature",
      "properties": {
        "名称": "Cultural Landscape of Old Tea Forests of the Jingmai Mountain in Pu’er",
        "国": "China",
        "種別": "文化遺産",
        "登録年": 2023
      },
      "geometry": {
        "type": "Point",
        "coordinates": [
          100.0075,
          22.1841666667
        ]
      }
    },
    {
      "type": "Feature",
      "properties": {
        "名称": "Beijing Central Axis: A Building Ensemble Exhibiting the Ideal Order of the Chinese Capital",
        "国": "China",
        "種別": "文化遺産",
        "登録年": 2024
      },
      "geometry": {
        "type": "Point",
        "coordinates": [
          116.3913888889,
          39.9072222222
        ]
      }
    },
    {
      "type": "Feature",
      "properties": {
        "名称": "Port, Fortresses and Group of Monuments, Cartagena",
        "国": "Colombia",
        "種別": "文化遺産",
        "登録年": 1984
      },
      "geometry": {
        "type": "Point",
        "coordinates": [
          -75.53333333,
          10.41666667
        ]
      }
    },
    {
      "type": "Feature",
      "properties": {
        "名称": "Los Katíos National Park",
        "国": "Colombia",
        "種別": "自然遺産",
        "登録年": 1994
      },
      "geometry": {
        "type": "Point",
        "coordinates": [
          -77.146271,
          7.803975
        ]
      }
    },
    {
      "type": "Feature",
      "properties": {
        "名称": "Historic Centre of Santa Cruz de Mompox",
        "国": "Colombia",
        "種別": "文化遺産",
        "登録年": 1995
      },
      "geometry": {
        "type": "Point",
        "coordinates": [
          -74.423084,
          9.240492
        ]
      }
    },
    {
      "type": "Feature",
      "properties": {
        "名称": "National Archeological Park of Tierradentro",
        "国": "Colombia",
        "種別": "文化遺産",
        "登録年": 1995
      },
      "geometry": {
        "type": "Point",
        "coordinates": [
          -76.03333333,
          2.583333333
        ]
      }
    },
    {
      "type": "Feature",
      "properties": {
        "名称": "San Agustín Archaeological Park",
        "国": "Colombia",
        "種別": "文化遺産",
        "登録年": 1995
      },
      "geometry": {
        "type": "Point",
        "coordinates": [
          -76.23333333,
          1.916666667
        ]
      }
    },
    {
      "type": "Feature",
      "properties": {
        "名称": "Coffee Cultural Landscape of Colombia",
        "国": "Colombia",
        "種別": "文化遺産",
        "登録年": 2011
      },
      "geometry": {
        "type": "Point",
        "coordinates": [
          -75.773082,
          4.889476
        ]
      }
    },
    {
      "type": "Feature",
      "properties": {
        "名称": "Chiribiquete National Park – “The Maloca of the Jaguar”",
        "国": "Colombia",
        "種別": "複合遺産",
        "登録年": 2018
      },
      "geometry": {
        "type": "Point",
        "coordinates": [
          -72.7972222222,
          0.5252777778
        ]
      }
    },
    {
      "type": "Feature",
      "properties": {
        "名称": "Malpelo Fauna and Flora Sanctuary",
        "国": "Colombia",
        "種別": "自然遺産",
        "登録年": 2006
      },
      "geometry": {
        "type": "Point",
        "coordinates": [
          -81.607572,
          4.003344
        ]
      }
    },
    {
      "type": "Feature",
      "properties": {
        "名称": "Forest Massif of Odzala-Kokoua",
        "国": "Congo",
        "種別": "自然遺産",
        "登録年": 2023
      },
      "geometry": {
        "type": "Point",
        "coordinates": [
          14.8602777778,
          1.3355555556
        ]
      }
    },
    {
      "type": "Feature",
      "properties": {
        "名称": "Cocos Island National Park",
        "国": "Costa Rica",
        "種別": "自然遺産",
        "登録年": 1997
      },
      "geometry": {
        "type": "Point",
        "coordinates": [
          -87.06666667,
          5.533333333
        ]
      }
    },
    {
      "type": "Feature",
      "properties": {
        "名称": "Area de Conservación Guanacaste",
        "国": "Costa Rica",
        "種別": "自然遺産",
        "登録年": 1999
      },
      "geometry": {
        "type": "Point",
        "coordinates": [
          -85.61666667,
          10.85
        ]
      }
    },
    {
      "type": "Feature",
      "properties": {
        "名称": "Precolumbian Chiefdom Settlements with Stone Spheres of the Diquís",
        "国": "Costa Rica",
        "種別": "文化遺産",
        "登録年": 2014
      },
      "geometry": {
        "type": "Point",
        "coordinates": [
          -83.502539,
          8.938453
        ]
      }
    },
    {
      "type": "Feature",
      "properties": {
        "名称": "Taï National Park",
        "国": "Côte d'Ivoire",
        "種別": "自然遺産",
        "登録年": 1982
      },
      "geometry": {
        "type": "Point",
        "coordinates": [
          -7.0952777778,
          5.6488888889
        ]
      }
    },
    {
      "type": "Feature",
      "properties": {
        "名称": "Comoé National Park",
        "国": "Côte d'Ivoire",
        "種別": "自然遺産",
        "登録年": 1983
      },
      "geometry": {
        "type": "Point",
        "coordinates": [
          -4.0,
          9.0
        ]
      }
    },
    {
      "type": "Feature",
      "properties": {
        "名称": "Historic Town of Grand-Bassam",
        "国": "Côte d'Ivoire",
        "種別": "文化遺産",
        "登録年": 2012
      },
      "geometry": {
        "type": "Point",
        "coordinates": [
          -3.7363888889,
          5.1958333333
        ]
      }
    },
    {
      "type": "Feature",
      "properties": {
        "名称": "Sudanese style mosques in northern Côte d’Ivoire",
        "国": "Côte d'Ivoire",
        "種別": "文化遺産",
        "登録年": 2021
      },
      "geometry": {
        "type": "Point",
        "coordinates": [
          -6.4101666667,
          10.4903166667
        ]
      }
    },
    {
      "type": "Feature",
      "properties": {
        "名称": "Old City of Dubrovnik",
        "国": "Croatia",
        "種別": "文化遺産",
        "登録年": 1979
      },
      "geometry": {
        "type": "Point",
        "coordinates": [
          18.1088611111,
          42.6414211111
        ]
      }
    },
    {
      "type": "Feature",
      "properties": {
        "名称": "Historical Complex of Split with the Palace of Diocletian",
        "国": "Croatia",
        "種別": "文化遺産",
        "登録年": 1979
      },
      "geometry": {
        "type": "Point",
        "coordinates": [
          16.4391666667,
          43.5088888889
        ]
      }
    },
    {
      "type": "Feature",
      "properties": {
        "名称": "Plitvice Lakes National Park",
        "国": "Croatia",
        "種別": "自然遺産",
        "登録年": 1979
      },
      "geometry": {
        "type": "Point",
        "coordinates": [
          15.61444,
          44.87778
        ]
      }
    },
    {
      "type": "Feature",
      "properties": {
        "名称": "Episcopal Complex of the Euphrasian Basilica in the Historic Centre of Poreč",
        "国": "Croatia",
        "種別": "文化遺産",
        "登録年": 1997
      },
      "geometry": {
        "type": "Point",
        "coordinates": [
          13.5933333333,
          45.2285833333
        ]
      }
    },
    {
      "type": "Feature",
      "properties": {
        "名称": "Historic City of Trogir",
        "国": "Croatia",
        "種別": "文化遺産",
        "登録年": 1997
      },
      "geometry": {
        "type": "Point",
        "coordinates": [
          16.2513611111,
          43.5170833333
        ]
      }
    },
    {
      "type": "Feature",
      "properties": {
        "名称": "The Cathedral of St James in Šibenik",
        "国": "Croatia",
        "種別": "文化遺産",
        "登録年": 2000
      },
      "geometry": {
        "type": "Point",
        "coordinates": [
          15.89038,
          43.73629
        ]
      }
    },
    {
      "type": "Feature",
      "properties": {
        "名称": "Stari Grad Plain",
        "国": "Croatia",
        "種別": "文化遺産",
        "登録年": 2008
      },
      "geometry": {
        "type": "Point",
        "coordinates": [
          16.6386111111,
          43.1816666667
        ]
      }
    },
    {
      "type": "Feature",
      "properties": {
        "名称": "Old Havana and its Fortification System",
        "国": "Cuba",
        "種別": "文化遺産",
        "登録年": 1982
      },
      "geometry": {
        "type": "Point",
        "coordinates": [
          -82.35,
          23.13333333
        ]
      }
    },
    {
      "type": "Feature",
      "properties": {
        "名称": "Trinidad and the Valley de los Ingenios",
        "国": "Cuba",
        "種別": "文化遺産",
        "登録年": 1988
      },
      "geometry": {
        "type": "Point",
        "coordinates": [
          -79.98444444,
          21.80305556
        ]
      }
    },
    {
      "type": "Feature",
      "properties": {
        "名称": "Alejandro de Humboldt National Park",
        "国": "Cuba",
        "種別": "自然遺産",
        "登録年": 2001
      },
      "geometry": {
        "type": "Point",
        "coordinates": [
          -75.0,
          20.45
        ]
      }
    },
    {
      "type": "Feature",
      "properties": {
        "名称": "Viñales Valley",
        "国": "Cuba",
        "種別": "文化遺産",
        "登録年": 1999
      },
      "geometry": {
        "type": "Point",
        "coordinates": [
          -83.71667,
          22.61667
        ]
      }
    },
    {
      "type": "Feature",
      "properties": {
        "名称": "San Pedro de la Roca Castle, Santiago de Cuba",
        "国": "Cuba",
        "種別": "文化遺産",
        "登録年": 1997
      },
      "geometry": {
        "type": "Point",
        "coordinates": [
          -75.870441,
          19.968446
        ]
      }
    },
    {
      "type": "Feature",
      "properties": {
        "名称": "Desembarco del Granma National Park",
        "国": "Cuba",
        "種別": "自然遺産",
        "登録年": 1999
      },
      "geometry": {
        "type": "Point",
        "coordinates": [
          -77.63333,
          19.88333
        ]
      }
    },
    {
      "type": "Feature",
      "properties": {
        "名称": "Archaeological Landscape of the First Coffee Plantations in the South-East of Cuba",
        "国": "Cuba",
        "種別": "文化遺産",
        "登録年": 2000
      },
      "geometry": {
        "type": "Point",
        "coordinates": [
          -75.39138889,
          20.03
        ]
      }
    },
    {
      "type": "Feature",
      "properties": {
        "名称": "Urban Historic Centre of Cienfuegos",
        "国": "Cuba",
        "種別": "文化遺産",
        "登録年": 2005
      },
      "geometry": {
        "type": "Point",
        "coordinates": [
          -80.452183,
          22.145887
        ]
      }
    },
    {
      "type": "Feature",
      "properties": {
        "名称": "Historic Centre of Camagüey",
        "国": "Cuba",
        "種別": "文化遺産",
        "登録年": 2008
      },
      "geometry": {
        "type": "Point",
        "coordinates": [
          -77.9186111111,
          21.3786111111
        ]
      }
    },
    {
      "type": "Feature",
      "properties": {
        "名称": "Paphos",
        "国": "Cyprus",
        "種別": "文化遺産",
        "登録年": 1980
      },
      "geometry": {
        "type": "Point",
        "coordinates": [
          32.40556,
          34.75833
        ]
      }
    },
    {
      "type": "Feature",
      "properties": {
        "名称": "Painted Churches in the Troodos Region",
        "国": "Cyprus",
        "種別": "文化遺産",
        "登録年": 1985
      },
      "geometry": {
        "type": "Point",
        "coordinates": [
          33.09583333,
          34.92027778
        ]
      }
    },
    {
      "type": "Feature",
      "properties": {
        "名称": "Choirokoitia",
        "国": "Cyprus",
        "種別": "文化遺産",
        "登録年": 1998
      },
      "geometry": {
        "type": "Point",
        "coordinates": [
          33.3439431453,
          34.7967406661
        ]
      }
    },
    {
      "type": "Feature",
      "properties": {
        "名称": "Historic Centre of Prague",
        "国": "Czechia",
        "種別": "文化遺産",
        "登録年": 1992
      },
      "geometry": {
        "type": "Point",
        "coordinates": [
          14.41944,
          50.08972
        ]
      }
    },
    {
      "type": "Feature",
      "properties": {
        "名称": "Historic Centre of Český Krumlov",
        "国": "Czechia",
        "種別": "文化遺産",
        "登録年": 1992
      },
      "geometry": {
        "type": "Point",
        "coordinates": [
          14.3150277778,
          48.8106944444
        ]
      }
    },
    {
      "type": "Feature",
      "properties": {
        "名称": "Historic Centre of Telč",
        "国": "Czechia",
        "種別": "文化遺産",
        "登録年": 1992
      },
      "geometry": {
        "type": "Point",
        "coordinates": [
          15.4539722222,
          49.1841388889
        ]
      }
    },
    {
      "type": "Feature",
      "properties": {
        "名称": "Pilgrimage Church of St John of Nepomuk at Zelená Hora",
        "国": "Czechia",
        "種別": "文化遺産",
        "登録年": 1994
      },
      "geometry": {
        "type": "Point",
        "coordinates": [
          15.9420583333,
          49.5802
        ]
      }
    },
    {
      "type": "Feature",
      "properties": {
        "名称": "Kutná Hora: Historical Town Centre with the Church of St Barbara and the Cathedral of Our Lady at Sedlec",
        "国": "Czechia",
        "種別": "文化遺産",
        "登録年": 1995
      },
      "geometry": {
        "type": "Point",
        "coordinates": [
          15.2666666667,
          49.95
        ]
      }
    },
    {
      "type": "Feature",
      "properties": {
        "名称": "Lednice-Valtice Cultural Landscape",
        "国": "Czechia",
        "種別": "文化遺産",
        "登録年": 1996
      },
      "geometry": {
        "type": "Point",
        "coordinates": [
          16.775,
          48.77583
        ]
      }
    },
    {
      "type": "Feature",
      "properties": {
        "名称": "Holy Trinity Column in Olomouc",
        "国": "Czechia",
        "種別": "文化遺産",
        "登録年": 2000
      },
      "geometry": {
        "type": "Point",
        "coordinates": [
          17.2504583333,
          49.5939361111
        ]
      }
    },
    {
      "type": "Feature",
      "properties": {
        "名称": "Gardens and Castle at Kroměříž",
        "国": "Czechia",
        "種別": "文化遺産",
        "登録年": 1998
      },
      "geometry": {
        "type": "Point",
        "coordinates": [
          17.37722222,
          49.3
        ]
      }
    },
    {
      "type": "Feature",
      "properties": {
        "名称": "Holašovice Historic Village",
        "国": "Czechia",
        "種別": "文化遺産",
        "登録年": 1998
      },
      "geometry": {
        "type": "Point",
        "coordinates": [
          14.2726111111,
          48.9696388889
        ]
      }
    },
    {
      "type": "Feature",
      "properties": {
        "名称": "Litomyšl Castle",
        "国": "Czechia",
        "種別": "文化遺産",
        "登録年": 1999
      },
      "geometry": {
        "type": "Point",
        "coordinates": [
          16.31444,
          49.87361
        ]
      }
    },
    {
      "type": "Feature",
      "properties": {
        "名称": "Tugendhat Villa in Brno",
        "国": "Czechia",
        "種別": "文化遺産",
        "登録年": 2001
      },
      "geometry": {
        "type": "Point",
        "coordinates": [
          16.6160555556,
          49.2071833333
        ]
      }
    },
    {
      "type": "Feature",
      "properties": {
        "名称": "Jewish Quarter and St Procopius' Basilica in Třebíč",
        "国": "Czechia",
        "種別": "文化遺産",
        "登録年": 2003
      },
      "geometry": {
        "type": "Point",
        "coordinates": [
          15.87888889,
          49.21722222
        ]
      }
    },
    {
      "type": "Feature",
      "properties": {
        "名称": "Žatec and the Landscape of Saaz Hops",
        "国": "Czechia",
        "種別": "文化遺産",
        "登録年": 2023
      },
      "geometry": {
        "type": "Point",
        "coordinates": [
          13.62,
          50.3202777778
        ]
      }
    },
    {
      "type": "Feature",
      "properties": {
        "名称": "Landscape for Breeding and Training of Ceremonial Carriage Horses at Kladruby nad Labem",
        "国": "Czechia",
        "種別": "文化遺産",
        "登録年": 2019
      },
      "geometry": {
        "type": "Point",
        "coordinates": [
          15.4842583333,
          50.05665
        ]
      }
    },
    {
      "type": "Feature",
      "properties": {
        "名称": "Complex of Koguryo Tombs",
        "国": "Democratic People's Republic of Korea",
        "種別": "文化遺産",
        "登録年": 2004
      },
      "geometry": {
        "type": "Point",
        "coordinates": [
          125.415,
          38.86305556
        ]
      }
    },
    {
      "type": "Feature",
      "properties": {
        "名称": "Historic Monuments and Sites in Kaesong",
        "国": "Democratic People's Republic of Korea",
        "種別": "文化遺産",
        "登録年": 2013
      },
      "geometry": {
        "type": "Point",
        "coordinates": [
          126.5080555556,
          37.9816666667
        ]
      }
    },
    {
      "type": "Feature",
      "properties": {
        "名称": "Virunga National Park",
        "国": "Democratic Republic of the Congo",
        "種別": "自然遺産",
        "登録年": 1979
      },
      "geometry": {
        "type": "Point",
        "coordinates": [
          29.16666667,
          0.916666667
        ]
      }
    },
    {
      "type": "Feature",
      "properties": {
        "名称": "Garamba National Park",
        "国": "Democratic Republic of the Congo",
        "種別": "自然遺産",
        "登録年": 1980
      },
      "geometry": {
        "type": "Point",
        "coordinates": [
          29.25,
          4.0
        ]
      }
    },
    {
      "type": "Feature",
      "properties": {
        "名称": "Kahuzi-Biega National Park",
        "国": "Democratic Republic of the Congo",
        "種別": "自然遺産",
        "登録年": 1980
      },
      "geometry": {
        "type": "Point",
        "coordinates": [
          28.180743,
          -2.334053
        ]
      }
    },
    {
      "type": "Feature",
      "properties": {
        "名称": "Salonga National Park",
        "国": "Democratic Republic of the Congo",
        "種別": "自然遺産",
        "登録年": 1984
      },
      "geometry": {
        "type": "Point",
        "coordinates": [
          21.0,
          -2.0
        ]
      }
    },
    {
      "type": "Feature",
      "properties": {
        "名称": "Okapi Wildlife Reserve",
        "国": "Democratic Republic of the Congo",
        "種別": "自然遺産",
        "登録年": 1996
      },
      "geometry": {
        "type": "Point",
        "coordinates": [
          28.5,
          2.0
        ]
      }
    },
    {
      "type": "Feature",
      "properties": {
        "名称": "Roskilde Cathedral",
        "国": "Denmark",
        "種別": "文化遺産",
        "登録年": 1995
      },
      "geometry": {
        "type": "Point",
        "coordinates": [
          12.07972222,
          55.64222222
        ]
      }
    },
    {
      "type": "Feature",
      "properties": {
        "名称": "Kronborg Castle",
        "国": "Denmark",
        "種別": "文化遺産",
        "登録年": 2000
      },
      "geometry": {
        "type": "Point",
        "coordinates": [
          12.62083333,
          56.03889
        ]
      }
    },
    {
      "type": "Feature",
      "properties": {
        "名称": "Jelling Mounds, Runic Stones and Church",
        "国": "Denmark",
        "種別": "文化遺産",
        "登録年": 1994
      },
      "geometry": {
        "type": "Point",
        "coordinates": [
          9.42,
          55.75638889
        ]
      }
    },
    {
      "type": "Feature",
      "properties": {
        "名称": "Ilulissat Icefjord",
        "国": "Denmark",
        "種別": "自然遺産",
        "登録年": 2004
      },
      "geometry": {
        "type": "Point",
        "coordinates": [
          -49.5,
          69.13333333
        ]
      }
    },
    {
      "type": "Feature",
      "properties": {
        "名称": "Stevns Klint",
        "国": "Denmark",
        "種別": "自然遺産",
        "登録年": 2014
      },
      "geometry": {
        "type": "Point",
        "coordinates": [
          12.4233333333,
          55.2672222222
        ]
      }
    },
    {
      "type": "Feature",
      "properties": {
        "名称": "The par force hunting landscape in North Zealand",
        "国": "Denmark",
        "種別": "文化遺産",
        "登録年": 2015
      },
      "geometry": {
        "type": "Point",
        "coordinates": [
          12.3577777778,
          55.9136111111
        ]
      }
    },
    {
      "type": "Feature",
      "properties": {
        "名称": "Kujataa Greenland: Norse and Inuit Farming at the Edge of the Ice Cap",
        "国": "Denmark",
        "種別": "文化遺産",
        "登録年": 2017
      },
      "geometry": {
        "type": "Point",
        "coordinates": [
          -45.5980555556,
          61.1644444444
        ]
      }
    },
    {
      "type": "Feature",
      "properties": {
        "名称": "Aasivissuit – Nipisat. Inuit Hunting Ground between Ice and Sea",
        "国": "Denmark",
        "種別": "文化遺産",
        "登録年": 2018
      },
      "geometry": {
        "type": "Point",
        "coordinates": [
          -51.4332055556,
          67.0639305556
        ]
      }
    },
    {
      "type": "Feature",
      "properties": {
        "名称": "Viking-Age Ring Fortresses",
        "国": "Denmark",
        "種別": "文化遺産",
        "登録年": 2023
      },
      "geometry": {
        "type": "Point",
        "coordinates": [
          9.2547222222,
          56.9952777778
        ]
      }
    },
    {
      "type": "Feature",
      "properties": {
        "名称": "Morne Trois Pitons National Park",
        "国": "Dominica",
        "種別": "自然遺産",
        "登録年": 1997
      },
      "geometry": {
        "type": "Point",
        "coordinates": [
          -61.30661,
          15.331113
        ]
      }
    },
    {
      "type": "Feature",
      "properties": {
        "名称": "Colonial City of Santo Domingo",
        "国": "Dominican Republic",
        "種別": "文化遺産",
        "登録年": 1990
      },
      "geometry": {
        "type": "Point",
        "coordinates": [
          -69.885841,
          18.472394
        ]
      }
    },
    {
      "type": "Feature",
      "properties": {
        "名称": "Galápagos Islands",
        "国": "Ecuador",
        "種別": "自然遺産",
        "登録年": 1978
      },
      "geometry": {
        "type": "Point",
        "coordinates": [
          -90.501319,
          -0.68986
        ]
      }
    },
    {
      "type": "Feature",
      "properties": {
        "名称": "City of Quito",
        "国": "Ecuador",
        "種別": "文化遺産",
        "登録年": 1978
      },
      "geometry": {
        "type": "Point",
        "coordinates": [
          -78.5120833333,
          -0.22
        ]
      }
    },
    {
      "type": "Feature",
      "properties": {
        "名称": "Sangay National Park",
        "国": "Ecuador",
        "種別": "自然遺産",
        "登録年": 1983
      },
      "geometry": {
        "type": "Point",
        "coordinates": [
          -78.33333,
          -1.83333
        ]
      }
    },
    {
      "type": "Feature",
      "properties": {
        "名称": "Historic Centre of Santa Ana de los Ríos de Cuenca",
        "国": "Ecuador",
        "種別": "文化遺産",
        "登録年": 1999
      },
      "geometry": {
        "type": "Point",
        "coordinates": [
          -79.004382,
          -2.897447
        ]
      }
    },
    {
      "type": "Feature",
      "properties": {
        "名称": "Memphis and its Necropolis – the Pyramid Fields from Giza to Dahshur",
        "国": "Egypt",
        "種別": "文化遺産",
        "登録年": 1979
      },
      "geometry": {
        "type": "Point",
        "coordinates": [
          31.13041,
          29.97604
        ]
      }
    },
    {
      "type": "Feature",
      "properties": {
        "名称": "Ancient Thebes with its Necropolis",
        "国": "Egypt",
        "種別": "文化遺産",
        "登録年": 1979
      },
      "geometry": {
        "type": "Point",
        "coordinates": [
          32.6,
          25.73333
        ]
      }
    },
    {
      "type": "Feature",
      "properties": {
        "名称": "Nubian Monuments from Abu Simbel to Philae",
        "国": "Egypt",
        "種別": "文化遺産",
        "登録年": 1979
      },
      "geometry": {
        "type": "Point",
        "coordinates": [
          31.6258055556,
          22.3372222222
        ]
      }
    },
    {
      "type": "Feature",
      "properties": {
        "名称": "Historic Cairo",
        "国": "Egypt",
        "種別": "文化遺産",
        "登録年": 1979
      },
      "geometry": {
        "type": "Point",
        "coordinates": [
          31.26111,
          30.05
        ]
      }
    },
    {
      "type": "Feature",
      "properties": {
        "名称": "Abu Mena",
        "国": "Egypt",
        "種別": "文化遺産",
        "登録年": 1979
      },
      "geometry": {
        "type": "Point",
        "coordinates": [
          29.66666667,
          30.8358333333
        ]
      }
    },
    {
      "type": "Feature",
      "properties": {
        "名称": "Saint Catherine Area",
        "国": "Egypt",
        "種別": "文化遺産",
        "登録年": 2002
      },
      "geometry": {
        "type": "Point",
        "coordinates": [
          33.97543,
          28.55623
        ]
      }
    },
    {
      "type": "Feature",
      "properties": {
        "名称": "Wadi Al-Hitan (Whale Valley)",
        "国": "Egypt",
        "種別": "自然遺産",
        "登録年": 2005
      },
      "geometry": {
        "type": "Point",
        "coordinates": [
          30.18333,
          29.33333
        ]
      }
    },
    {
      "type": "Feature",
      "properties": {
        "名称": "Joya de Cerén Archaeological Site",
        "国": "El Salvador",
        "種別": "文化遺産",
        "登録年": 1993
      },
      "geometry": {
        "type": "Point",
        "coordinates": [
          -89.36916667,
          13.8275
        ]
      }
    },
    {
      "type": "Feature",
      "properties": {
        "名称": "Asmara: A Modernist African City",
        "国": "Eritrea",
        "種別": "文化遺産",
        "登録年": 2017
      },
      "geometry": {
        "type": "Point",
        "coordinates": [
          38.9358333333,
          15.3352777778
        ]
      }
    },
    {
      "type": "Feature",
      "properties": {
        "名称": "Historic Centre (Old Town) of Tallinn",
        "国": "Estonia",
        "種別": "文化遺産",
        "登録年": 1997
      },
      "geometry": {
        "type": "Point",
        "coordinates": [
          24.73333333,
          59.43333
        ]
      }
    },
    {
      "type": "Feature",
      "properties": {
        "名称": "Simien National Park",
        "国": "Ethiopia",
        "種別": "自然遺産",
        "登録年": 1978
      },
      "geometry": {
        "type": "Point",
        "coordinates": [
          38.0666666667,
          13.1833333333
        ]
      }
    },
    {
      "type": "Feature",
      "properties": {
        "名称": "Lower Valley of the Awash",
        "国": "Ethiopia",
        "種別": "文化遺産",
        "登録年": 1980
      },
      "geometry": {
        "type": "Point",
        "coordinates": [
          40.57939,
          11.10006
        ]
      }
    },
    {
      "type": "Feature",
      "properties": {
        "名称": "Tiya",
        "国": "Ethiopia",
        "種別": "文化遺産",
        "登録年": 1980
      },
      "geometry": {
        "type": "Point",
        "coordinates": [
          38.6121,
          8.43491
        ]
      }
    },
    {
      "type": "Feature",
      "properties": {
        "名称": "Melka Kunture and Balchit: Archaeological and Palaeontological Sites in the Highland Area of Ethiopia",
        "国": "Ethiopia",
        "種別": "文化遺産",
        "登録年": 2024
      },
      "geometry": {
        "type": "Point",
        "coordinates": [
          38.5990833333,
          8.7034722222
        ]
      }
    },
    {
      "type": "Feature",
      "properties": {
        "名称": "Aksum",
        "国": "Ethiopia",
        "種別": "文化遺産",
        "登録年": 1980
      },
      "geometry": {
        "type": "Point",
        "coordinates": [
          38.71861,
          14.13019
        ]
      }
    },
    {
      "type": "Feature",
      "properties": {
        "名称": "Lower Valley of the Omo",
        "国": "Ethiopia",
        "種別": "文化遺産",
        "登録年": 1980
      },
      "geometry": {
        "type": "Point",
        "coordinates": [
          35.96666667,
          4.8
        ]
      }
    },
    {
      "type": "Feature",
      "properties": {
        "名称": "Rock-Hewn Churches, Lalibela",
        "国": "Ethiopia",
        "種別": "文化遺産",
        "登録年": 1978
      },
      "geometry": {
        "type": "Point",
        "coordinates": [
          39.04042,
          12.02935
        ]
      }
    },
    {
      "type": "Feature",
      "properties": {
        "名称": "Fasil Ghebbi, Gondar Region",
        "国": "Ethiopia",
        "種別": "文化遺産",
        "登録年": 1979
      },
      "geometry": {
        "type": "Point",
        "coordinates": [
          37.4697,
          12.607909
        ]
      }
    },
    {
      "type": "Feature",
      "properties": {
        "名称": "Bale Mountains National Park",
        "国": "Ethiopia",
        "種別": "自然遺産",
        "登録年": 2023
      },
      "geometry": {
        "type": "Point",
        "coordinates": [
          39.7488888889,
          6.7977777778
        ]
      }
    },
    {
      "type": "Feature",
      "properties": {
        "名称": "Harar Jugol, the Fortified Historic Town",
        "国": "Ethiopia",
        "種別": "文化遺産",
        "登録年": 2006
      },
      "geometry": {
        "type": "Point",
        "coordinates": [
          42.1377777777,
          9.3088888888
        ]
      }
    },
    {
      "type": "Feature",
      "properties": {
        "名称": "Konso Cultural Landscape",
        "国": "Ethiopia",
        "種別": "文化遺産",
        "登録年": 2011
      },
      "geometry": {
        "type": "Point",
        "coordinates": [
          37.4,
          5.3
        ]
      }
    },
    {
      "type": "Feature",
      "properties": {
        "名称": "The Gedeo Cultural Landscape",
        "国": "Ethiopia",
        "種別": "文化遺産",
        "登録年": 2023
      },
      "geometry": {
        "type": "Point",
        "coordinates": [
          38.2877777778,
          6.2488888889
        ]
      }
    },
    {
      "type": "Feature",
      "properties": {
        "名称": "Levuka Historical Port Town",
        "国": "Fiji",
        "種別": "文化遺産",
        "登録年": 2013
      },
      "geometry": {
        "type": "Point",
        "coordinates": [
          178.8345333333,
          -17.6833777778
        ]
      }
    },
    {
      "type": "Feature",
      "properties": {
        "名称": "Bronze Age Burial Site of Sammallahdenmäki",
        "国": "Finland",
        "種別": "文化遺産",
        "登録年": 1999
      },
      "geometry": {
        "type": "Point",
        "coordinates": [
          21.7775,
          61.12056
        ]
      }
    },
    {
      "type": "Feature",
      "properties": {
        "名称": "Old Rauma",
        "国": "Finland",
        "種別": "文化遺産",
        "登録年": 1991
      },
      "geometry": {
        "type": "Point",
        "coordinates": [
          21.51167,
          61.12806
        ]
      }
    },
    {
      "type": "Feature",
      "properties": {
        "名称": "Fortress of Suomenlinna",
        "国": "Finland",
        "種別": "文化遺産",
        "登録年": 1991
      },